{"pageProps":{"data":{"events":[{"slug":"event-01","title":"Storytelling Workshop","thumbnail":{"src":"/images/event/01.jpg"},"start_date":"2024-12-01","location":{"city":"New Jersey","country":"US","zip":"20099","latitude":40.758062,"longitude":-73.9699129},"path":"/events/event-01"},{"slug":"event-02","title":"Painting Art Contest 2024","thumbnail":{"src":"/images/event/02.jpg"},"start_date":"2022-05-01","location":{"city":"New York","country":"US","zip":"20099","latitude":40.758062,"longitude":-73.9699129},"path":"/events/event-02"},{"slug":"event-03","title":"International Art Fair 2024","thumbnail":{"src":"/images/event/03.jpg"},"start_date":"2024-09-01","location":{"city":"Hamburg","country":"Germany","zip":"20099","latitude":40.758062,"longitude":-73.9699129},"path":"/events/event-03"},{"slug":"event-04","title":"Street Performance: Call for Artist","thumbnail":{"src":"/images/event/04.jpg"},"start_date":"2022-10-01","location":{"city":"Illinois","country":"US","zip":"20099","latitude":40.758062,"longitude":-73.9699129},"path":"/events/event-04"},{"slug":"event-05","title":"Consumer Food Safety Education Conference","thumbnail":{"src":"/images/event/05.jpg"},"start_date":"2024-12-05","location":{"city":"Illinois","country":"US","zip":"20099","latitude":40.758062,"longitude":-73.9699129},"path":"/events/event-05"},{"slug":"event-06","title":"How meditation improve your mental health?","thumbnail":{"src":"/images/event/06.jpg"},"start_date":"2022-04-01","location":{"city":"Hamburg","country":"US","zip":"20099","latitude":40.758062,"longitude":-73.9699129},"path":"/events/event-06"},{"slug":"event-07","title":"Dialogue for Action on Cancer Screening and Prevention","thumbnail":{"src":"/images/event/07.jpg"},"start_date":"2025-02-01","location":{"city":"Washington DC","country":"US","zip":"20099","latitude":40.758062,"longitude":-73.9699129},"path":"/events/event-07"},{"slug":"event-08","title":"Workout routine and Longevity Meetup","thumbnail":{"src":"/images/event/08.jpg"},"start_date":"2022-02-01","location":{"city":"Hamburg","country":"Germany","zip":"20099","latitude":40.758062,"longitude":-73.9699129},"path":"/events/event-08"},{"slug":"event-09","title":"Learning Counsel Digital Transition Discussion Event – Chicago","thumbnail":{"src":"/images/event/09.jpg"},"start_date":"2024-06-02","location":{"city":"Chicago","country":"US","zip":"20099","latitude":40.758062,"longitude":-73.9699129},"path":"/events/event-09"}],"allEvents":[{"slug":"event-01","title":"Storytelling Workshop","thumbnail":{"src":"/images/event/01.jpg"},"start_date":"2024-12-01","location":{"city":"New Jersey","country":"US","zip":"20099","latitude":40.758062,"longitude":-73.9699129},"path":"/events/event-01"},{"slug":"event-02","title":"Painting Art Contest 2024","thumbnail":{"src":"/images/event/02.jpg"},"start_date":"2022-05-01","location":{"city":"New York","country":"US","zip":"20099","latitude":40.758062,"longitude":-73.9699129},"path":"/events/event-02"},{"slug":"event-03","title":"International Art Fair 2024","thumbnail":{"src":"/images/event/03.jpg"},"start_date":"2024-09-01","location":{"city":"Hamburg","country":"Germany","zip":"20099","latitude":40.758062,"longitude":-73.9699129},"path":"/events/event-03"},{"slug":"event-04","title":"Street Performance: Call for Artist","thumbnail":{"src":"/images/event/04.jpg"},"start_date":"2022-10-01","location":{"city":"Illinois","country":"US","zip":"20099","latitude":40.758062,"longitude":-73.9699129},"path":"/events/event-04"},{"slug":"event-05","title":"Consumer Food Safety Education Conference","thumbnail":{"src":"/images/event/05.jpg"},"start_date":"2024-12-05","location":{"city":"Illinois","country":"US","zip":"20099","latitude":40.758062,"longitude":-73.9699129},"path":"/events/event-05"},{"slug":"event-06","title":"How meditation improve your mental health?","thumbnail":{"src":"/images/event/06.jpg"},"start_date":"2022-04-01","location":{"city":"Hamburg","country":"US","zip":"20099","latitude":40.758062,"longitude":-73.9699129},"path":"/events/event-06"},{"slug":"event-07","title":"Dialogue for Action on Cancer Screening and Prevention","thumbnail":{"src":"/images/event/07.jpg"},"start_date":"2025-02-01","location":{"city":"Washington DC","country":"US","zip":"20099","latitude":40.758062,"longitude":-73.9699129},"path":"/events/event-07"},{"slug":"event-08","title":"Workout routine and Longevity Meetup","thumbnail":{"src":"/images/event/08.jpg"},"start_date":"2022-02-01","location":{"city":"Hamburg","country":"Germany","zip":"20099","latitude":40.758062,"longitude":-73.9699129},"path":"/events/event-08"},{"slug":"event-09","title":"Learning Counsel Digital Transition Discussion Event – Chicago","thumbnail":{"src":"/images/event/09.jpg"},"start_date":"2024-06-02","location":{"city":"Chicago","country":"US","zip":"20099","latitude":40.758062,"longitude":-73.9699129},"path":"/events/event-09"},{"slug":"event-10","title":"10th Annual SXSW EDU Conference and Festival","thumbnail":{"src":"/images/event/10.jpg"},"start_date":"2022-11-01","location":{"city":"Texas","country":"US","zip":"20099","latitude":40.758062,"longitude":-73.9699129},"path":"/events/event-10"},{"slug":"event-11","title":"FLA: Design Thinking and Innovation Week 2024","thumbnail":{"src":"/images/event/11.jpg"},"start_date":"2025-03-01","location":{"city":"NewYork","country":"US","zip":"20099","latitude":40.758062,"longitude":-73.9699129},"path":"/events/event-11"},{"slug":"event-12","title":"ProductCon San Francisco: The Product Management Conference","thumbnail":{"src":"/images/event/12.jpg"},"start_date":"2024-05-01","location":{"city":"New York","country":"US","zip":"20099","latitude":40.758062,"longitude":-73.9699129},"path":"/events/event-12"},{"slug":"event-13","title":"2nd Annual Educating Mindfully Conference at Dream Big Institute office","thumbnail":{"src":"/images/event/13.jpg"},"start_date":"2024-07-01","location":{"city":"San Francisco","country":"US","zip":"20099","latitude":40.758062,"longitude":-73.9699129},"path":"/events/event-13"},{"slug":"event-14","title":"Creating Futures Through Technology Conference – Dream Big Institute Tech Center","thumbnail":{"src":"/images/event/14.jpg"},"start_date":"2024-07-01","location":{"city":"New York","country":"US","zip":"20099","latitude":40.758062,"longitude":-73.9699129},"path":"/events/event-14"}],"totalEvents":14,"currentPage":1,"numberOfPages":2},"layout":{"headerShadow":true,"headerFluid":false,"footerMode":"light"}},"__N_SSG":true}